,City,Lat,Lng,Max Temp,Humidity,Cloudiness,Wind Speed,Country,Date
0,Busselton,-33.65,115.3333,64.99,76,100,4.0,AU,1614554915
1,Rikitea,-23.1203,-134.9692,78.39,77,28,12.19,PF,1614554915
2,Ashti,19.3833,76.2333,76.44,25,0,4.7,IN,1614554916
3,Atuona,-9.8,-139.0333,80.37,78,6,16.31,PF,1614554916
4,Verkhnyaya Inta,65.9811,60.3094,4.55,92,97,9.75,RU,1614554916
5,Kakching,24.4833,93.9833,51.98,69,0,1.5,IN,1614554916
6,Castro,-24.7911,-50.0119,64.26,96,91,7.81,BR,1614554901
7,Saskylakh,71.9167,114.0833,-23.4,84,100,7.18,RU,1614554917
8,Kahului,20.8947,-156.47,78.8,57,40,21.85,US,1614554917
9,Qaanaaq,77.484,-69.3632,-5.19,83,88,2.98,GL,1614554917
10,Nouadhibou,20.931,-17.0347,60.8,77,0,16.11,MR,1614554918
11,Tāybād,34.74,60.7756,45.43,21,2,7.16,IR,1614554918
12,Clyde River,70.4692,-68.5914,-27.4,56,75,3.44,CA,1614554918
13,George Town,5.4112,100.3354,80.6,88,20,3.44,MY,1614554919
14,Tilichiki,60.4667,166.1,-15.63,90,100,14.79,RU,1614554919
15,Calama,-22.4667,-68.9333,69.8,43,20,29.93,CL,1614554919
16,Hithadhoo,-0.6,73.0833,82.71,65,83,8.55,MV,1614554920
17,Rocha,-34.4833,-54.3333,68.79,82,5,11.23,UY,1614554920
18,Ribeira Grande,38.5167,-28.7,56.77,62,2,9.91,PT,1614554920
19,Padang,-0.9492,100.3543,73.4,94,20,3.44,ID,1614554795
20,Suwanee,34.0515,-84.0713,73.99,56,20,9.22,US,1614554795
21,Danville,36.586,-79.395,57.2,88,1,8.72,US,1614554691
22,Itapuranga,-15.5622,-49.9486,67.35,95,99,4.63,BR,1614554921
23,Vaini,-21.2,-175.2,82.4,69,75,4.61,TO,1614554922
24,Albany,42.6001,-73.9662,41.0,63,100,1.01,US,1614554922
25,Talnakh,69.4865,88.3972,-34.29,79,12,8.46,RU,1614554922
26,Cabo San Lucas,22.8909,-109.9124,78.01,41,40,9.22,MX,1614554823
27,Bambous Virieux,-20.3428,57.7575,78.01,88,40,3.44,MU,1614554923
28,Chara,56.9064,118.2631,-27.24,61,77,1.48,RU,1614554923
29,Nikolskoye,59.7035,30.7861,34.0,93,0,6.71,RU,1614554923
30,Chokurdakh,70.6333,147.9167,-29.09,84,0,3.38,RU,1614554924
31,Lesnyye Polyany,55.9667,37.8667,30.2,93,90,2.24,RU,1614554924
32,Punta Arenas,-53.15,-70.9167,51.8,43,0,13.8,CL,1614554649
33,Hamilton,39.1834,-84.5333,61.0,88,90,9.22,US,1614554870
34,Ambon City,-3.6954,128.1814,84.2,70,40,12.66,ID,1614554925
35,Manzhouli,49.6,117.4333,-11.88,69,0,3.29,CN,1614554925
36,Barrow,71.2906,-156.7887,-11.2,70,1,8.05,US,1614554701
37,Longyearbyen,78.2186,15.6401,15.8,67,75,10.36,SJ,1614554926
38,Borovnica,45.9158,14.3631,35.01,71,17,3.0,SI,1614554926
39,Antofagasta,-23.65,-70.4,69.8,78,20,10.36,CL,1614554927
40,Nuuk,64.1835,-51.7216,8.6,85,75,12.66,GL,1614554927
41,Port Alfred,-33.5906,26.891,71.74,77,4,28.1,ZA,1614554665
42,Harper,4.375,-7.7169,78.12,87,33,3.27,LR,1614554927
43,Provideniya,64.3833,-173.3,-4.0,71,90,24.61,RU,1614554928
44,Mount Gambier,-37.8333,140.7667,62.6,63,90,14.97,AU,1614554738
45,Port Macquarie,-31.4333,152.9167,79.0,88,40,3.44,AU,1614554928
46,Kapaa,22.0752,-159.319,75.2,69,20,23.02,US,1614554928
47,Kati,12.7441,-8.0726,80.6,22,0,3.44,ML,1614554929
48,Hilo,19.7297,-155.09,78.8,65,90,9.22,US,1614554929
49,Hofn,64.2539,-15.2082,39.09,73,85,13.11,IS,1614554929
50,Coquimbo,-29.9533,-71.3436,62.6,82,40,11.5,CL,1614554896
51,Ushuaia,-54.8,-68.3,46.4,61,20,17.27,AR,1614554741
52,Outjo,-20.1167,16.15,68.02,59,23,11.56,NA,1614554930
53,Saint-Philippe,-21.3585,55.7679,77.0,69,0,2.3,RE,1614554930
54,Miyako,39.6367,141.9525,43.7,62,84,4.12,JP,1614554931
55,Matamoros,25.5333,-103.25,93.2,6,75,13.09,MX,1614554931
56,Arraial do Cabo,-22.9661,-42.0278,77.63,85,99,15.21,BR,1614554931
57,Prykolotne,50.1604,37.3474,29.57,99,79,5.26,UA,1614554932
58,Asău,46.4333,26.4,39.0,49,99,4.83,RO,1614554932
59,Adeje,28.1227,-16.726,63.0,77,20,6.91,ES,1614554932
60,Caravelas,-17.7125,-39.2481,76.17,84,99,7.72,BR,1614554933
61,Torbay,47.6666,-52.7314,32.0,100,90,2.3,CA,1614554933
62,Mar del Plata,-38.0023,-57.5575,70.0,100,75,12.66,AR,1614554933
63,Henties Bay,-22.116,14.2845,64.99,90,45,1.99,NA,1614554933
64,Miles City,46.4083,-105.8406,42.8,28,75,21.85,US,1614554934
65,Ilulissat,69.2167,-51.1,21.2,53,75,16.11,GL,1614554934
66,Tuatapere,-46.1333,167.6833,69.01,76,42,1.99,NZ,1614554935
67,Ahipara,-35.1667,173.1667,72.5,65,42,7.7,NZ,1614554935
68,Hermanus,-34.4187,19.2345,72.0,83,0,11.99,ZA,1614554935
69,Kumul,42.8,93.45,25.11,71,0,1.3,CN,1614554935
70,Fomboni,-12.28,43.7425,82.51,77,66,11.36,KM,1614554935
71,Weihe,32.9952,105.3247,34.63,51,96,8.08,CN,1614554936
72,Sinnamary,5.3833,-52.95,76.66,84,76,12.08,GF,1614554936
73,Mataura,-46.1927,168.8643,69.01,76,81,1.99,NZ,1614554936
74,Severo-Kuril'sk,50.6789,156.125,26.29,92,83,23.17,RU,1614554937
75,Guerrero Negro,27.9769,-114.0611,73.26,23,0,11.68,MX,1614554937
76,Yellowknife,62.456,-114.3525,-18.0,52,40,8.05,CA,1614554684
77,Portland,45.5234,-122.6762,57.99,44,20,1.48,US,1614554639
78,Kearney,40.6995,-99.0815,39.2,56,1,9.22,US,1614554938
79,Acaraú,-2.8856,-40.12,79.38,82,100,12.24,BR,1614554939
80,East London,-33.0153,27.9116,71.31,76,46,20.54,ZA,1614554939
81,Khatanga,71.9667,102.5,-26.82,85,100,3.13,RU,1614554939
82,Kutum,14.2,24.6667,60.3,30,11,11.1,SD,1614554939
83,Kavieng,-2.5744,150.7967,82.98,74,52,7.02,PG,1614554940
84,Kuruman,-27.4524,23.4325,65.03,58,5,5.91,ZA,1614554941
85,Cape Town,-33.9258,18.4232,71.01,64,0,10.36,ZA,1614554882
86,Fairbanks,64.8378,-147.7164,0.0,71,90,6.91,US,1614554894
87,Jamestown,42.097,-79.2353,44.01,89,90,12.06,US,1614554650
88,Carnarvon,-24.8667,113.6333,73.4,83,100,5.75,AU,1614554942
89,Pringsewu,-5.3582,104.9744,72.48,86,95,1.9,ID,1614554942
90,Port Elizabeth,-33.918,25.5701,69.8,83,0,16.11,ZA,1614554942
91,Buala,-8.145,159.5921,78.06,88,100,12.21,SB,1614554711
92,Balingasay,16.3573,119.8564,79.45,79,78,10.65,PH,1614554943
93,Ponta do Sol,32.6667,-17.1,60.8,67,40,8.05,PT,1614554943
94,Puerto Escondido,15.85,-97.0667,82.4,69,20,8.05,MX,1614554944
95,Whitehorse,60.7161,-135.0538,32.0,69,75,13.8,CA,1614554944
96,Gao,16.6362,1.637,78.98,10,90,8.52,ML,1614554944
97,Poplar Bluff,36.757,-90.3929,60.8,82,90,5.75,US,1614554945
98,Nantucket,41.2835,-70.0995,41.0,93,1,9.22,US,1614554945
99,Avarua,-21.2078,-159.775,84.2,79,20,13.8,CK,1614554946
100,Vanimo,-2.6741,141.3028,81.36,78,93,4.56,PG,1614554946
101,Nome,64.5011,-165.4064,-5.8,59,1,2.95,US,1614554733
102,Souillac,-20.5167,57.5167,77.0,88,40,3.44,MU,1614554947
103,Tocopilla,-22.092,-70.1979,71.01,66,24,3.76,CL,1614554947
104,Ballina,-28.8667,153.5667,79.0,83,40,3.0,AU,1614554947
105,Linjiang,41.8069,126.9078,22.23,91,100,4.45,CN,1614554948
106,Iqaluit,63.7506,-68.5145,-18.4,57,75,5.75,CA,1614554746
107,Hobart,-42.8794,147.3294,64.99,88,75,6.91,AU,1614554757
108,Broken Hill,-31.95,141.4333,69.8,43,0,14.97,AU,1614554949
109,Tiarei,-17.5333,-149.3333,84.2,74,75,5.75,PF,1614554949
110,Lumsden,50.6501,-104.8678,12.0,72,90,12.66,CA,1614554950
111,Inírida,3.8653,-67.9239,78.57,82,68,2.06,CO,1614554950
112,Kalengwa,-13.4659,25.0027,63.34,99,99,3.85,ZM,1614554950
113,Margate,51.3813,1.3862,44.01,84,0,1.99,GB,1614554950
114,Airai,-8.9266,125.4092,61.63,100,100,0.43,TL,1614554951
115,Pangnirtung,66.1451,-65.7125,-31.43,76,98,3.98,CA,1614554951
116,Norman Wells,65.282,-126.8329,-20.2,63,75,12.66,CA,1614554951
117,Tiksi,71.6872,128.8694,-30.59,85,100,4.59,RU,1614554951
118,Port Blair,11.6667,92.75,75.85,63,14,3.67,IN,1614554952
119,Banda Aceh,5.5577,95.3222,76.23,76,0,5.88,ID,1614554952
120,Bredasdorp,-34.5322,20.0403,69.8,88,35,13.8,ZA,1614554952
121,Belyy Yar,53.6039,91.3903,3.2,78,75,2.24,RU,1614554953
122,Sitka,57.0531,-135.33,41.0,75,90,19.57,US,1614554953
123,Thinadhoo,0.5333,72.9333,82.02,65,64,6.93,MV,1614554954
124,Flinders,-34.5833,150.8552,79.0,75,1,1.99,AU,1614554859
125,Touros,-5.1989,-35.4608,78.8,83,40,9.22,BR,1614554954
126,Ancud,-41.8697,-73.8203,64.99,72,20,4.61,CL,1614554955
127,Santiago del Estero,-27.7951,-64.2615,87.75,31,6,4.79,AR,1614554934
128,Lavrentiya,65.5833,-171.0,-11.9,86,1,4.79,RU,1614554955
129,Jijiga,9.35,42.8,61.56,42,61,4.76,ET,1614554955
130,Bluff,-46.6,168.3333,69.01,76,74,1.99,NZ,1614554956
131,Jalu,29.0331,21.5482,55.65,65,0,9.48,LY,1614554956
132,Grindavik,63.8424,-22.4338,37.4,81,75,21.85,IS,1614554956
133,Rio Claro,-22.4114,-47.5614,75.2,83,40,5.75,BR,1614554956
134,Butaritari,3.0707,172.7902,80.6,82,97,9.98,KI,1614554956
135,Broome,42.2506,-75.833,39.99,87,90,13.8,US,1614554957
136,Nanortalik,60.1432,-45.2371,29.19,94,100,9.35,GL,1614554957
137,Thompson,55.7435,-97.8558,-9.4,54,1,14.97,CA,1614554957
138,Mandalgovi,45.7625,106.2708,5.32,74,19,2.98,MN,1614554958
139,Hervey Bay,-25.2986,152.8535,84.2,58,40,9.22,AU,1614554958
140,Gornopravdinsk,60.05,69.9,-13.97,96,4,5.88,RU,1614554958
141,Mahébourg,-20.4081,57.7,77.0,88,40,3.44,MU,1614554959
142,Wyndham,37.6985,-77.6125,51.01,93,90,3.8,US,1614554959
143,Buchmany,51.0689,28.0421,35.55,97,100,9.48,UA,1614554960
144,Chapais,49.7834,-74.8492,24.8,86,90,9.22,CA,1614554960
145,Makīnsk,52.6292,70.4169,30.42,98,100,16.55,KZ,1614554706
146,Bengkulu,-3.8004,102.2655,76.98,80,95,3.36,ID,1614554961
147,Deputatsky,69.3,139.9,-35.27,85,76,0.81,RU,1614554961
148,Cap Malheureux,-19.9842,57.6142,78.01,80,2,3.0,MU,1614554962
149,The Valley,18.217,-63.0578,77.0,69,20,11.5,AI,1614554962
150,Buritizeiro,-17.3511,-44.9622,71.17,82,82,3.89,BR,1614554963
151,Vila do Maio,15.1333,-23.2167,68.0,64,40,19.57,CV,1614554963
152,New Norfolk,-42.7826,147.0587,64.99,77,78,3.98,AU,1614554963
153,Bulembu,-25.9667,31.1333,66.0,94,93,2.3,SZ,1614554964
154,Jerantut,3.936,102.3626,72.28,94,69,0.54,MY,1614554964
155,Riyadh,24.6877,46.7219,68.0,22,40,12.66,SA,1614554763
156,Saint Paul Harbor,57.79,-152.4072,26.6,43,1,27.63,US,1614554965
157,Juan de Ayolas,-27.4,-56.9,80.78,44,0,5.46,PY,1614554965
158,Jaora,23.6333,75.1333,69.15,36,0,6.46,IN,1614554965
159,Vanino,49.0869,140.2543,6.3,83,9,15.21,RU,1614554966
160,Coyhaique,-45.5752,-72.0662,55.69,98,100,5.3,CL,1614554671
161,Eyl,7.9803,49.8164,74.03,82,86,12.15,SO,1614554942
162,Sassandra,4.95,-6.0833,77.97,89,100,4.79,CI,1614554967
163,Tasiilaq,65.6145,-37.6368,15.8,86,0,6.91,GL,1614554967
164,Deskáti,39.9225,21.8028,41.0,81,87,5.75,GR,1614554967
165,Camopi,3.1655,-52.3158,72.39,97,96,2.51,GF,1614554968
166,Hokitika,-42.7167,170.9667,67.06,71,99,6.15,NZ,1614554968
167,Vostok,46.4856,135.8833,-5.37,93,99,4.85,RU,1614554969
168,Puerto Ayora,-0.7393,-90.3518,84.2,79,20,11.5,EC,1614554969
169,Nabire,-3.3667,135.4833,78.46,86,100,3.42,ID,1614554704
170,Cidreira,-30.1811,-50.2056,74.41,84,30,21.23,BR,1614554970
171,Bethel,41.3712,-73.414,37.0,94,100,1.99,US,1614554944
172,Maamba,-17.3667,27.15,62.96,94,100,4.79,ZM,1614554971
173,Neochori,41.1833,23.25,42.01,61,18,5.01,GR,1614554971
174,Sumbe,-11.2061,13.8437,76.01,87,93,8.01,AO,1614554971
175,Luanda,-8.8368,13.2343,78.8,83,20,8.05,AO,1614554766
176,Sørland,67.667,12.6934,42.33,73,100,29.73,NO,1614554971
177,Frýdek-Místek,49.6833,18.35,37.4,87,90,2.3,CZ,1614554972
178,Labuhan,-6.8844,112.2051,77.7,83,65,3.29,ID,1614554972
179,Lerwick,60.1545,-1.1494,44.6,93,90,19.57,GB,1614554972
180,Sibolga,1.7427,98.7792,75.78,80,91,3.89,ID,1614554973
181,Haverfordwest,51.8017,-4.9691,46.99,80,0,8.99,GB,1614554973
182,Hay River,60.8156,-115.7999,-5.8,45,100,9.22,CA,1614554973
183,Ostrovnoy,68.0531,39.5131,33.93,91,100,22.03,RU,1614554973
184,Florianópolis,-27.6146,-48.5012,77.0,94,75,2.3,BR,1614554974
185,Hong Kong,22.2855,114.1577,69.01,85,98,11.18,HK,1614554974
186,Farīdpur,23.6,89.8333,75.2,78,40,11.5,BD,1614554974
187,Samaná,19.2056,-69.3369,78.8,89,40,4.61,DO,1614554975
188,San Policarpo,12.1791,125.5072,79.92,82,100,7.29,PH,1614554975
189,Finschhafen,-6.6024,147.8681,84.38,71,38,3.31,PG,1614554975
190,São Filipe,14.8961,-24.4956,67.12,74,4,13.13,CV,1614554976
191,Fort Nelson,58.8053,-122.7002,-2.2,65,75,6.91,CA,1614554976
192,Faanui,-16.4833,-151.75,82.85,76,80,10.83,PF,1614554977
193,Areosa,41.7178,-8.8571,55.99,71,0,6.91,PT,1614554977
194,Sobolevo,54.4299,31.8996,32.49,97,100,7.72,RU,1614554978
195,Pacific Grove,36.6177,-121.9166,66.99,30,1,5.75,US,1614554978
196,Conway,35.0887,-92.4421,60.8,100,90,6.91,US,1614554927
197,Fendou,45.2,130.9167,6.71,83,100,1.41,CN,1614554978
198,Adet,11.2644,37.4888,59.04,66,84,1.16,ET,1614554979
199,Takahata,38.0025,140.1911,39.99,93,75,1.14,JP,1614554979
200,Madaoua,14.073,5.96,76.93,9,1,14.09,NE,1614554979
201,Cherskiy,68.75,161.3,-17.9,81,0,0.6,RU,1614554980
202,Raahe,64.6833,24.4833,41.0,70,0,14.97,FI,1614554980
203,Sakhnovshchyna,49.1517,35.872,29.3,99,84,5.35,UA,1614554980
204,Obihiro,42.9172,143.2044,35.6,55,75,9.22,JP,1614554981
205,Isangel,-19.55,169.2667,86.0,74,75,5.75,VU,1614554981
206,Soto,-32.8107,-61.4026,84.0,61,0,8.05,AR,1614554981
207,Camocim,-2.9022,-40.8411,78.64,84,96,10.63,BR,1614554982
208,Lianyuan,27.6883,111.6642,54.25,96,100,4.92,CN,1614554982
209,Koygorodok,60.445,50.9968,-6.18,91,0,2.15,RU,1614554982
210,Marawi,7.9986,124.2928,73.99,92,0,3.0,PH,1614554983
211,Plettenberg Bay,-34.0527,23.3716,70.21,86,12,7.52,ZA,1614554983
212,Santa Cruz del Sur,20.7147,-77.9956,82.09,58,0,7.2,CU,1614554983
213,Ochakiv,46.6128,31.5498,35.6,80,40,4.47,UA,1614554984
214,Tevriz,57.509,72.4042,-3.42,92,100,7.16,RU,1614554984
215,Anloga,5.7947,0.8973,84.2,79,20,9.22,GH,1614554984
216,Rawson,-43.3002,-65.1023,81.05,22,54,6.78,AR,1614554985
217,Houndé,11.5,-3.5167,80.94,15,12,3.42,BF,1614554985
218,Katakwi,1.8911,33.9661,74.62,39,50,4.0,UG,1614554833
219,Lagoa,39.05,-27.9833,56.28,64,5,12.95,PT,1614554986
220,Kieta,-6.2167,155.6333,82.09,66,100,1.03,PG,1614554986
221,Wucheng,29.6008,118.175,60.01,91,100,1.07,CN,1614554987
222,Malakal,9.5334,31.6605,81.01,10,0,9.73,SS,1614554987
223,Kavaratti,10.5669,72.642,81.5,69,8,0.16,IN,1614554987
224,Vila Franca do Campo,37.7167,-25.4333,59.0,88,75,13.8,PT,1614554987
225,Rapla,59.0072,24.7928,30.99,99,27,5.23,EE,1614554988
226,Bačko Gradište,45.5328,20.0283,28.4,93,0,1.14,RS,1614554988
227,Pevek,69.7008,170.3133,-23.4,87,2,2.84,RU,1614554988
228,Upernavik,72.7868,-56.1549,4.89,76,61,6.87,GL,1614554988
229,Kholodnyy,62.7167,147.95,-21.12,84,77,2.84,RU,1614554989
230,Humberto de Campos,-2.5983,-43.4611,77.11,86,98,5.79,BR,1614554989
231,Port Hardy,50.6996,-127.4199,46.4,81,75,17.27,CA,1614554989
232,Koson,39.0375,65.585,35.6,60,0,9.22,UZ,1614554989
233,Nishihara,26.1842,127.7558,69.8,88,20,3.44,JP,1614554990
234,Samarai,-10.6167,150.6667,83.8,75,97,14.65,PG,1614554990
235,Palmas,-10.2128,-48.3603,73.4,94,75,6.91,BR,1614554990
236,Kemijärvi,66.7131,27.4306,36.5,87,100,11.83,FI,1614554990
237,San Patricio,28.017,-97.5169,78.8,73,90,21.85,US,1614554991
238,Santa Rita do Sapucaí,-22.2522,-45.7033,65.88,90,100,1.36,BR,1614554991
239,Dunedin,-45.8742,170.5036,62.01,90,79,25.99,NZ,1614554991
240,Port Augusta,-32.5,137.7667,69.8,68,36,13.8,AU,1614554992
241,Alpena,45.0617,-83.4327,43.0,87,90,11.5,US,1614554992
242,Kununurra,-15.7667,128.7333,78.8,60,2,4.61,AU,1614554992
243,Dingle,10.9995,122.6711,74.91,89,95,7.72,PH,1614554992
244,Iwanai,42.9744,140.5089,35.51,86,100,8.9,JP,1614554993
245,Ankara,39.9199,32.8543,30.0,69,0,5.75,TR,1614554838
246,Xai-Xai,-25.0519,33.6442,73.8,77,98,10.8,MZ,1614554993
247,Alofi,-19.0595,-169.9187,80.6,83,90,4.61,NU,1614554994
248,Arica,-18.475,-70.3042,73.4,68,0,5.75,CL,1614554994
249,Muros,42.7762,-9.0603,48.0,77,0,1.99,ES,1614554994
250,Timmins,48.4669,-81.3331,32.0,86,90,10.36,CA,1614554994
251,Xapuri,-10.6517,-68.5044,76.37,93,93,2.24,BR,1614554995
252,Charters Towers,-20.1,146.2667,73.4,88,100,16.06,AU,1614554995
253,Srīvardhan,18.0333,73.0167,76.35,58,0,9.46,IN,1614554995
254,Solnechnyy,50.7214,136.6319,-3.21,81,5,1.45,RU,1614554996
255,Comodoro Rivadavia,-45.8667,-67.5,82.4,39,0,8.05,AR,1614554865
256,Itaituba,-4.2761,-55.9836,80.6,83,40,0.98,BR,1614554996
257,Farsund,58.0948,6.8047,42.01,94,21,15.82,NO,1614554996
258,Dodge City,37.7528,-100.0171,46.4,29,1,18.41,US,1614554997
259,Vallenar,-28.5708,-70.7581,74.64,47,0,5.35,CL,1614554997
260,Majene,-3.5403,118.9707,77.83,74,100,2.8,ID,1614554997
261,Rincon,32.296,-81.2354,75.2,73,75,12.66,US,1614554998
262,Kruisfontein,-34.0033,24.7314,70.0,82,1,3.0,ZA,1614554998
263,Sarangani,5.4033,125.4636,82.38,76,62,15.9,PH,1614554998
264,Stromness,58.965,-3.296,44.6,87,90,9.22,GB,1614554999
265,Kongolo,-5.3833,27.0,70.61,93,88,0.83,CD,1614554999
266,Luba,3.4568,8.5547,78.8,83,20,3.44,GQ,1614554999
267,Lata,40.1629,-8.3327,57.0,94,7,2.17,PT,1614555000
268,Acapulco de Juárez,16.8634,-99.8901,82.4,74,40,11.5,MX,1614554945
269,Takaka,-40.85,172.8,63.0,91,100,5.01,NZ,1614555001
270,Mackenzie,55.2999,-123.1698,37.4,81,75,12.66,CA,1614555001
271,Gemeente Ommen,52.5333,6.5,39.99,94,0,1.99,NL,1614555002
272,Matara,5.9485,80.5353,72.73,80,2,8.14,LK,1614555003
273,Omsukchan,62.5333,155.8,-22.27,83,98,6.15,RU,1614555004
274,Churapcha,62.0025,132.4325,-15.81,92,100,7.74,RU,1614555004
275,San Buenaventura,27.0833,-101.5333,89.6,22,75,9.22,MX,1614555004
276,Los Chiles,11.0333,-84.7167,77.02,74,69,7.99,CR,1614555005
277,Zhicheng,30.2956,111.5047,45.0,97,100,8.14,CN,1614555005
278,Vypolzovo,57.8767,33.6986,30.07,99,100,4.0,RU,1614555005
279,Saint George,37.1041,-113.5841,52.0,12,1,6.91,US,1614554996
280,Massakory,12.996,15.7293,77.43,11,11,15.08,TD,1614555006
281,Tuktoyaktuk,69.4541,-133.0374,-31.0,68,1,8.05,CA,1614555006
282,Puerto Limón,10.0,-83.0333,82.4,74,0,9.22,CR,1614554770
283,Timiryazevskiy,56.49,84.8769,0.0,82,97,8.79,RU,1614555007
284,Kaitangata,-46.2817,169.8464,66.99,90,53,10.25,NZ,1614555007
285,Jieshou,33.2634,115.3611,45.3,85,100,16.91,CN,1614555008
286,Kudahuvadhoo,2.6708,72.8944,81.16,63,90,3.11,MV,1614555008
287,Haines Junction,60.7522,-137.5108,26.6,59,100,11.5,CA,1614555008
288,Mattru,7.6244,-11.8332,78.82,83,99,3.74,SL,1614555008
289,Manubul,5.4732,120.7986,82.47,75,24,1.83,PH,1614555009
290,Krasnyy Chikoy,50.3643,108.7512,-13.7,93,70,3.31,RU,1614555009
291,Fes,34.0372,-4.9998,48.2,93,40,4.61,MA,1614554926
292,Rio Bananal,-19.265,-40.3333,71.58,96,87,3.74,BR,1614555010
293,Belogorsk,50.9158,128.4611,-11.4,84,29,5.88,RU,1614555010
294,Khovd,48.0056,91.6419,7.63,71,53,0.49,MN,1614555010
295,Gmina Opole Lubelskie,51.1478,21.969,39.99,100,100,12.57,PL,1614555011
296,Soyo,-6.1349,12.3689,79.74,86,100,10.04,AO,1614555011
297,Borshchiv,48.8033,26.0435,37.0,89,100,13.85,UA,1614555011
298,Dois Vizinhos,-25.7336,-53.0572,67.59,95,76,3.09,BR,1614554821
299,Esim,4.8699,-2.2405,79.07,87,79,7.67,GH,1614555012
300,Lompoc,34.6391,-120.4579,69.8,16,20,12.66,US,1614554946
301,Kangaatsiaq,68.3065,-53.4641,-4.52,88,100,27.02,GL,1614555013
302,Laas,46.6166,10.7002,39.0,80,0,6.91,IT,1614555013
303,Turukhansk,65.8167,87.9833,-33.34,79,0,3.42,RU,1614555013
304,Saint-Augustin,51.226,-58.6502,17.06,93,86,11.9,CA,1614555014
305,Geraldton,-28.7667,114.6,69.8,88,25,6.91,AU,1614554982
306,Zhangaözen,43.3,52.8,34.29,95,92,9.44,KZ,1614555014
307,Caucaia,-3.7361,-38.6531,82.4,78,40,8.05,BR,1614555015
308,Assiut,27.181,31.1837,53.6,62,0,6.91,EG,1614555015
309,Meadow Lake,34.8014,-106.5436,50.0,23,90,10.36,US,1614555015
310,Sikonge,-5.6333,32.7667,68.0,94,75,3.44,TZ,1614555015
311,Priiskovyy,51.9333,116.6333,-15.2,81,35,3.15,RU,1614555016
312,Ginir,7.1333,40.7,61.14,46,26,2.24,ET,1614555016
313,Tonk,26.1667,75.7833,60.13,33,0,1.34,IN,1614555016
314,Havre-St-Pierre,50.2334,-63.5986,26.6,59,1,10.36,CA,1614555017
315,Hājīganj,23.2511,90.8592,67.64,94,0,6.89,BD,1614555017
316,Guatire,10.4762,-66.5427,82.4,74,20,2.3,VE,1614555017
317,Port-Gentil,-0.7193,8.7815,82.4,89,40,6.91,GA,1614555017
318,Faya,18.3851,42.4509,57.2,67,0,11.5,SA,1614555018
319,Altamira,-3.2033,-52.2064,73.81,95,86,2.71,BR,1614555018
320,Goya,-29.14,-59.2626,83.52,37,0,9.71,AR,1614555018
321,La Reforma,18.1,-91.0167,83.12,59,12,5.73,MX,1614555018
322,Lebu,-37.6167,-73.65,61.11,83,34,19.66,CL,1614555018
323,Chingirlau,51.095,54.0814,0.36,94,95,7.96,KZ,1614555019
324,Verrettes,19.05,-72.4667,80.6,69,20,9.22,HT,1614555019
325,Nakambala,-15.8324,27.7799,64.13,95,100,8.3,ZM,1614555019
326,Gumdag,39.2061,54.5906,45.75,55,0,3.89,TM,1614555020
327,Dikson,73.5069,80.5464,-14.73,87,100,21.65,RU,1614555020
328,Tulum,20.2167,-87.4667,82.4,69,40,12.66,MX,1614554796
329,Saldanha,-33.0117,17.9442,59.0,88,24,8.05,ZA,1614555021
330,Manjeshwar,12.7194,74.8861,78.8,83,20,4.76,IN,1614555021
331,Santa Marta,11.2408,-74.199,89.6,40,20,21.85,CO,1614555003
332,Vostochnyy,55.8167,37.8667,30.2,93,90,2.24,RU,1614555022
333,Ulkan,57.243,107.3223,-9.47,87,100,3.24,RU,1614555022
334,Rio Grande,-32.035,-52.0986,75.99,79,2,3.0,BR,1614554939
335,Bariloche,-41.1456,-71.3082,73.4,33,40,16.11,AR,1614555022
336,Sosnovo-Ozerskoye,52.5249,111.5418,-18.26,88,65,3.53,RU,1614555023
337,Vao,-22.6667,167.4833,78.4,74,13,13.13,NC,1614555023
338,Weatherford,32.7593,-97.7972,54.0,69,100,4.0,US,1614555024
339,Jedburgh,55.48,-2.552,39.0,93,3,0.76,GB,1614555024
340,Praia da Vitória,38.7333,-27.0667,54.0,94,75,7.14,PT,1614555024
341,Bathsheba,13.2167,-59.5167,77.0,61,20,19.57,BB,1614555025
342,Prince Rupert,54.3161,-130.3201,37.4,93,90,9.22,CA,1614555009
343,Yulara,-25.2406,130.9889,82.4,23,41,3.44,AU,1614555025
344,Krasnosel'kup,65.7,82.4667,-30.1,83,35,8.08,RU,1614555026
345,Chlórakas,34.8042,32.4083,50.0,87,40,6.91,CY,1614555026
346,Bichura,50.5881,107.6022,-9.62,83,44,2.15,RU,1614555026
347,Sokolo,14.7328,-6.1219,77.25,16,42,8.52,ML,1614555027
348,Zhangye,38.9342,100.4517,25.48,84,56,5.57,CN,1614555027
349,Avera,33.194,-82.5271,77.0,57,1,8.05,US,1614555027
350,Alekseyevsk,57.8406,108.3492,-11.07,98,100,3.44,RU,1614555027
351,Honiara,-9.4333,159.95,79.48,84,100,6.31,SB,1614555028
352,Kyabé,9.4515,18.9449,78.37,18,0,4.9,TD,1614555028
353,Nemuro,43.3236,145.575,35.55,84,100,16.08,JP,1614555029
354,Ürümqi,43.801,87.6005,6.8,85,16,1.83,CN,1614555029
355,Ponta Delgada,37.7333,-25.6667,59.0,88,75,13.8,PT,1614555029
356,Bull Savanna,17.8868,-77.5902,74.68,76,16,12.91,JM,1614555030
357,Ishigaki,24.3448,124.1572,66.2,94,20,3.44,JP,1614555030
358,Pisco,-13.7,-76.2167,75.2,78,75,4.61,PE,1614555030
359,Narsaq,60.9167,-46.05,26.6,46,90,5.53,GL,1614555031
360,Maniitsoq,65.4167,-52.9,3.43,90,100,11.54,GL,1614555020
361,San Andrés,12.5847,-81.7006,82.4,74,40,16.11,CO,1614555031
362,Cochrane,51.1834,-114.4687,41.0,45,75,21.85,CA,1614555032
363,Meulaboh,4.1363,96.1285,75.52,90,8,5.3,ID,1614555032
364,Southbridge,42.0751,-72.0334,39.99,62,100,5.99,US,1614555032
365,Homa Bay,-0.5273,34.4571,69.46,61,87,3.49,KE,1614555033
366,Magdagachi,53.45,125.8,-15.97,75,5,8.84,RU,1614555033
367,Yadgir,16.7667,77.1333,68.16,46,11,3.69,IN,1614555033
368,Ouallam,14.3188,2.0866,80.26,11,47,7.52,NE,1614555034
369,Berëzovka,53.7214,25.4993,35.78,93,100,5.37,BY,1614555034
370,Blenheim,-41.516,173.9528,73.0,66,99,8.9,NZ,1614555035
371,São Miguel do Araguaia,-13.275,-50.1628,72.34,95,91,1.99,BR,1614555035
372,Dunmore East,52.1514,-6.9861,42.01,90,0,1.99,IE,1614555036
373,Seoul,37.5683,126.9778,42.8,93,90,6.91,KR,1614555036
374,Beringovskiy,63.05,179.3167,-4.22,87,100,25.81,RU,1614555036
375,Camargo,27.6667,-105.1667,76.55,18,99,27.45,MX,1614555037
376,General Roca,-39.0333,-67.5833,86.0,28,0,4.61,AR,1614555037
377,Ordu,40.9086,37.6845,42.8,70,75,5.75,TR,1614555038
378,Mahon,39.8885,4.2658,55.4,67,75,11.5,ES,1614555038
379,Laguna,38.421,-121.4238,66.0,27,1,5.75,US,1614555038
380,Balad,34.0164,44.1453,53.01,32,1,2.59,IQ,1614555038
381,Eydhafushi,5.1033,73.0708,81.64,61,65,1.01,MV,1614555039
382,Saint Anthony,45.0205,-93.218,30.2,59,1,14.97,US,1614555039
383,Esmeraldas,-19.7625,-44.3139,71.6,73,0,11.5,BR,1614555039
384,Palmer,42.1584,-72.3287,41.0,70,90,4.61,US,1614555040
385,Homer,59.6425,-151.5483,19.4,79,75,10.36,US,1614555040
386,Leer,8.3018,30.1418,81.14,10,0,7.96,SS,1614555040
387,Micheweni,-4.9667,39.8333,79.57,81,100,8.41,TZ,1614555041
388,Nago,26.5881,127.9761,69.8,94,1,8.05,JP,1614555041
389,San Fernando del Valle de Catamarca,-28.4696,-65.7852,86.0,63,16,11.99,AR,1614555041
390,Olafsvik,64.8945,-23.7142,38.14,78,92,25.46,IS,1614555041
391,Lorengau,-2.0226,147.2712,84.36,72,100,8.95,PG,1614555042
392,Ulladulla,-35.35,150.4667,75.99,60,0,8.05,AU,1614555042
393,Mount Isa,-20.7333,139.5,87.8,48,53,5.75,AU,1614554808
394,Abu Samrah,35.3029,37.1841,48.13,81,8,6.93,SY,1614555042
395,Chui,-33.6971,-53.4616,70.18,81,4,12.01,UY,1614555043
396,San Rafael,-34.6177,-68.3301,85.24,30,0,10.69,AR,1614555026
397,Rjukan,59.8789,8.5941,30.0,56,6,15.99,NO,1614555043
398,Xining,36.6167,101.7667,20.25,89,82,2.06,CN,1614554756
399,Kozhva,65.1073,57.0459,3.54,93,99,10.38,RU,1614555044
400,Ukiah,39.1502,-123.2078,69.8,24,1,4.61,US,1614555044
401,Uíge,-7.6087,15.0613,68.07,90,90,1.63,AO,1614555044
402,Cayenne,4.9333,-52.3333,78.8,83,75,9.22,GF,1614555005
403,Duki,30.1541,68.5728,49.14,42,0,4.74,PK,1614555045
404,Te Anau,-45.4167,167.7167,66.58,73,85,2.13,NZ,1614555045
405,Øksfjord,70.2396,22.3479,39.2,60,100,18.41,NO,1614555046
406,Iporá,-16.4419,-51.1178,66.33,97,85,3.11,BR,1614555046
407,Maracaibo,10.6317,-71.6406,81.46,60,48,21.05,VE,1614555046
408,Masindi,1.6744,31.715,76.39,36,59,2.26,UG,1614555046
409,Bac Lieu,9.285,105.7244,78.84,83,10,13.35,VN,1614555047
410,Vestmannaeyjar,63.4427,-20.2734,41.34,68,100,14.58,IS,1614555047
411,Lat Yao,15.751,99.7893,71.46,73,66,2.82,TH,1614555048
412,Smithers,54.7804,-127.1743,44.6,61,75,6.91,CA,1614555048
413,Necochea,-38.5473,-58.7368,80.01,61,43,7.0,AR,1614555004
414,San Antonio,29.4241,-98.4936,75.99,73,20,5.75,US,1614554939
415,Bereda,43.2686,-7.5406,44.01,100,55,1.99,ES,1614555049
416,Moranbah,-22.0016,148.0466,79.81,71,100,18.52,AU,1614555049
417,Haysville,37.5645,-97.3523,52.0,37,1,17.27,US,1614555050
418,Klaksvík,62.2266,-6.589,44.6,100,75,4.61,FO,1614555050
419,Sisimiut,66.9395,-53.6735,0.55,99,100,27.27,GL,1614555050
420,Fortuna,40.5982,-124.1573,55.99,66,0,3.0,US,1614555051
421,Mackay,-21.15,149.2,82.4,78,40,14.97,AU,1614554764
422,Shingū,33.7333,135.9833,55.4,76,75,3.44,JP,1614555051
423,Rybnik,50.0971,18.5418,39.0,85,50,5.01,PL,1614555052
424,Kaeo,-35.1,173.7833,73.99,76,30,8.01,NZ,1614555052
425,Paraná,-31.732,-60.5238,88.0,53,78,4.0,AR,1614555052
426,Progreso,21.2833,-89.6667,87.8,48,75,6.91,MX,1614555053
427,Kimbe,-5.5502,150.1429,83.5,74,99,6.2,PG,1614555053
428,Penzance,50.1186,-5.5371,46.4,81,75,23.02,GB,1614554828
429,Biak,-0.9131,122.8766,80.2,73,100,4.21,ID,1614555053
430,College,64.8569,-147.8028,0.0,65,90,6.91,US,1614555054
431,Shahreza,32.0339,51.8794,43.0,57,18,4.07,IR,1614555055
432,Ekhabi,53.5102,142.9671,4.87,92,100,23.06,RU,1614555055
433,Tabou,4.423,-7.3528,77.56,89,88,3.8,CI,1614555055
434,Lima,-12.0432,-77.0282,77.0,69,0,12.66,PE,1614554841
435,‘Āhuimanu,21.4447,-157.8378,78.8,65,40,18.41,US,1614555056
436,Mt. Pleasant,32.7941,-79.8626,71.01,94,1,14.97,US,1614555056
437,Esperance,-33.8667,121.9,62.6,88,75,11.5,AU,1614555057
438,Taltal,-25.4,-70.4833,67.91,75,25,4.61,CL,1614554981
439,Monkey Bay,-14.0728,34.9201,74.28,82,65,15.82,MW,1614555057
440,Clearwater,27.9659,-82.8001,80.01,65,49,4.61,US,1614555001
441,Forbes,-33.3833,148.0167,85.35,22,0,9.71,AU,1614555058
442,Waingapu,-9.6567,120.2641,80.49,75,16,1.83,ID,1614555058
443,Warkworth,-36.4,174.6667,81.0,56,78,4.0,NZ,1614555058
444,Jumla,29.2747,82.1838,37.08,67,8,3.76,NP,1614555059
445,Bembèrèkè,10.2283,2.6634,76.21,21,0,3.71,BJ,1614555059
446,Hoshcha,50.6003,26.6744,36.39,96,100,12.35,UA,1614555059
447,Saint-Joseph,-21.3667,55.6167,77.0,69,0,2.3,RE,1614555060
448,Launceston,-41.45,147.1667,66.0,82,90,12.66,AU,1614555060
449,Río Gallegos,-51.6226,-69.2181,53.6,71,75,9.22,AR,1614555019
450,Yar-Sale,66.8333,70.8333,-12.96,95,99,13.71,RU,1614555060
451,Srednekolymsk,67.45,153.6833,-27.36,84,23,2.86,RU,1614555060
452,Lensk,60.7253,114.9278,-23.22,84,84,2.89,RU,1614555061
453,Severnoye,56.3491,78.3619,2.03,93,100,12.5,RU,1614555061
454,Mount Hagen,-5.8581,144.2274,73.99,54,45,2.75,PG,1614555062
455,Marabu,4.4148,114.0089,73.4,94,20,2.3,MY,1614555062
456,Kalat,29.0225,66.5916,35.15,62,0,3.78,PK,1614555063
457,Arvika,59.6553,12.5852,32.0,93,1,4.61,SE,1614555063
458,Alyangula,-13.8483,136.4192,85.33,67,68,10.92,AU,1614555063
459,Antsohihy,-14.8796,47.9875,73.85,90,100,2.95,MG,1614555064
460,Qaqortoq,60.7167,-46.0333,26.6,46,90,3.29,GL,1614555064
461,Bahía Blanca,-38.7196,-62.2724,84.0,34,0,7.11,AR,1614555008
462,San Vicente,-26.6167,-54.1333,73.31,73,36,5.88,AR,1614554971
463,Roald,62.5833,6.1333,44.6,70,20,27.63,NO,1614555065
464,Fengzhen,40.4394,113.1536,26.96,88,99,3.11,CN,1614555065
465,Port Lincoln,-34.7333,135.8667,64.56,74,93,16.78,AU,1614555066
466,Poum,-20.2333,164.0167,80.35,69,5,6.76,NC,1614554995
467,Plouzané,48.3833,-4.6167,41.0,93,0,9.22,FR,1614555066
468,Dnipryany,46.7463,33.2729,32.25,85,95,5.17,UA,1614555066
469,Yerofey Pavlovich,53.9667,121.9667,-15.88,97,97,0.69,RU,1614555067
470,Ola,59.5833,151.2833,1.22,83,100,7.74,RU,1614555067
471,Camacupa,-12.0167,17.4833,61.57,93,95,3.87,AO,1614554902
472,Sirte,31.2089,16.5887,58.21,72,0,7.2,LY,1614555068
473,Taoudenni,22.6783,-3.9836,65.52,23,0,5.77,ML,1614555068
474,Deming,32.2687,-107.7586,57.2,9,40,18.41,US,1614555068
475,Yining,29.0361,114.5636,54.88,91,100,3.24,CN,1614555069
476,Safi,32.2994,-9.2372,55.89,80,5,4.38,MA,1614555069
477,Rørvik,64.8621,11.2373,42.85,92,100,33.04,NO,1614555069
478,Hualmay,-11.0964,-77.6139,74.32,69,22,7.2,PE,1614555070
479,Venice,27.0998,-82.4543,77.0,83,20,5.75,US,1614555070
480,Saint-Leu,-21.15,55.2833,73.99,60,7,6.55,RE,1614555026
481,Muhafazat Lahij,13.1667,44.5833,69.76,75,5,6.02,YE,1614555071
482,Taungdwingyi,20.0167,95.55,65.66,41,19,5.1,MM,1614555071
483,Oistins,13.0667,-59.5333,77.0,61,20,19.57,BB,1614555071
484,Trairi,-3.2778,-39.2689,78.82,84,85,8.93,BR,1614555071
485,Hobyo,5.3505,48.5268,76.62,80,99,18.12,SO,1614555072
486,Kattivākkam,13.2167,80.3167,71.6,94,20,10.58,IN,1614555072
487,Shenzhen,22.5455,114.0683,69.01,99,92,6.78,CN,1614554967
488,Grand Gaube,-20.0064,57.6608,78.01,80,13,3.0,MU,1614555073
489,Galle,6.0367,80.217,74.39,77,23,10.04,LK,1614554904
490,Namatanai,-3.6667,152.4333,84.15,67,98,4.36,PG,1614555073
491,Indaial,-26.8978,-49.2317,72.0,99,100,2.48,BR,1614555074
492,Beian,63.6559,9.5683,44.6,70,75,32.21,NO,1614555074
493,Youghal,51.95,-7.8506,41.0,93,20,9.22,IE,1614555075
494,Lormi,22.2833,81.7333,69.24,25,0,2.71,IN,1614555075
495,Masuguru,-11.3667,38.4167,73.08,96,94,0.74,TZ,1614554832
496,Samus',56.7475,84.6992,0.0,85,95,5.01,RU,1614555076
497,Cockburn Town,21.4612,-71.1419,78.8,69,40,20.71,TC,1614555076
498,Kiama,-34.6833,150.8667,79.0,71,1,1.99,AU,1614555022
499,Jizan,17.3333,42.6667,80.6,78,0,9.22,SA,1614555077
500,Porbandar,21.6422,69.6093,70.11,71,0,9.89,IN,1614555078
501,Iquitos,-3.7481,-73.2472,78.8,83,40,4.61,PE,1614555078
502,Doha,25.2867,51.5333,64.4,77,0,1.14,QA,1614555060
503,Mana,5.6592,-53.7767,76.17,86,99,9.62,GF,1614555079
504,João Pinheiro,-17.7425,-46.1725,66.76,83,92,3.89,BR,1614555079
505,Melito di Porto Salvo,37.9222,15.7714,57.0,82,75,4.61,IT,1614555079
506,Hundorp,61.5552,9.9407,26.26,76,90,2.89,NO,1614555079
507,Muravlenko,63.7898,74.523,-19.98,88,0,6.78,RU,1614555080
508,Socorro,31.6546,-106.3033,68.0,7,1,9.22,US,1614555080
509,Rivadavia,-33.1905,-68.4608,84.2,51,40,2.3,AR,1614555080
510,Gbadolite,4.2833,21.0167,74.28,31,0,2.77,CD,1614555081
511,Narrabri,-30.3167,149.7833,82.4,51,29,8.05,AU,1614555081
512,Vicksburg,32.3526,-90.8779,80.6,73,75,9.22,US,1614555081
513,Azanka,58.0401,64.7893,-8.7,91,99,4.88,RU,1614555082
514,Brae,60.3964,-1.353,44.6,93,90,19.57,GB,1614555082
515,Oudtshoorn,-33.5907,22.2014,68.0,94,75,3.44,ZA,1614555083
516,Galesong,-5.3166,119.3661,73.4,100,20,2.3,ID,1614555083
517,Bumba,2.1833,22.4667,75.81,51,6,1.25,CD,1614555083
518,Teahupoo,-17.8333,-149.2667,84.2,74,75,5.75,PF,1614555083
519,Hasaki,35.7333,140.8333,44.6,61,75,8.05,JP,1614555084
520,Shorkot,31.9099,70.8774,54.63,41,0,2.62,PK,1614555084
521,Myaundzha,63.0494,147.1858,-16.73,79,9,2.95,RU,1614555085
522,Naze,28.3667,129.4833,69.8,78,75,16.11,JP,1614555085
523,Waipawa,-41.4122,175.5153,73.99,64,100,14.97,NZ,1614555022
524,Araçuaí,-16.8497,-42.0703,70.36,88,98,3.11,BR,1614555085
525,Codrington,-38.2667,141.9667,63.36,65,89,19.19,AU,1614555086
526,Cham,47.1821,8.4636,35.01,100,4,1.16,CH,1614555086
527,Camacha,33.0833,-16.3333,60.8,67,40,13.8,PT,1614555087
528,Portobelo,9.55,-79.65,84.0,70,98,7.0,PA,1614555087
529,Bontang,0.1333,117.5,75.58,86,100,6.51,ID,1614555088
530,Dindori,22.95,81.0833,65.95,27,1,1.03,IN,1614555088
531,Râmnicelu,45.2833,27.5333,42.12,56,96,0.29,RO,1614555088
532,São José da Coroa Grande,-8.8978,-35.1478,78.94,80,42,9.42,BR,1614555089
533,Dumas,35.8656,-101.9732,48.99,21,1,11.5,US,1614555089
534,Bilma,18.6853,12.9164,65.84,22,0,4.88,NE,1614555089
535,Cimarron Hills,38.8586,-104.6989,33.8,37,20,11.5,US,1614554956
536,Plácido de Castro,-10.3353,-67.1856,73.99,96,100,2.55,BR,1614555089
537,Sungai Raya,0.7,108.9,77.88,81,100,3.58,ID,1614555090
538,Tarko-Sale,64.9225,77.785,-22.74,87,3,9.1,RU,1614555090
539,Sucúa,-2.4667,-78.1667,68.0,88,90,9.22,EC,1614555091
540,Waren,53.5167,12.6833,39.99,85,6,3.0,DE,1614555091
541,Colares,38.7992,-9.4469,55.99,89,0,5.01,PT,1614555091
542,Port Hedland,-20.3167,118.5667,78.8,89,40,6.91,AU,1614555092
543,Visby,57.6409,18.296,32.0,93,20,5.75,SE,1614555092
544,Esil,51.9556,66.4042,25.43,98,98,15.32,KZ,1614555092
545,Sīrjān,29.452,55.6814,46.63,53,0,6.76,IR,1614555092
546,Novichikha,52.204,81.3877,22.03,97,100,30.29,RU,1614555093
547,Gondanglegi,-7.7479,112.0132,77.65,82,59,0.74,ID,1614555093
548,Okha,53.5739,142.9478,4.73,92,100,22.26,RU,1614555094
549,Vigía del Fuerte,6.5789,-76.8863,77.07,93,99,1.92,CO,1614555095
550,Athabasca,54.7169,-113.2854,14.0,73,100,12.66,CA,1614555095
551,Tayport,56.447,-2.8797,46.4,81,90,3.44,GB,1614555095
552,Caceres,39.522,-6.3748,48.99,82,6,3.38,ES,1614555096
553,Ozernovskiy,51.5,156.5167,24.03,94,100,20.15,RU,1614555096
554,Vila Velha,-20.3297,-40.2925,82.99,94,40,2.3,BR,1614555080
555,Kashgar,39.4547,75.9797,33.8,80,75,2.08,CN,1614555097
556,Takoradze,4.8845,-1.7554,79.14,87,96,8.7,GH,1614555097
